City_ID,City,Lat,Lng,Max Temp,Humidity,Cloudiness,Wind Speed,Country,Date
0,rongelap,11.1635,166.8941,28.48,77,36,5.73,MH,1689491254
1,ilhabela,-23.7781,-45.3581,16.68,85,0,1.81,BR,1689491255
2,griffith,41.5284,-87.4237,21.05,91,0,2.06,US,1689491255
3,tofol,5.3248,163.0078,25.88,94,100,1.54,FM,1689491255
4,adamstown,-25.066,-130.1015,21.11,88,100,5.07,PN,1689491255
5,stanley,54.868,-1.6985,15.16,86,40,10.8,GB,1689491256
6,ribeira grande,38.5167,-28.7,19.32,82,75,2.24,PT,1689491256
7,east london,-33.0153,27.9116,17.52,39,0,4.12,ZA,1689491256
8,puerto ayora,-0.7393,-90.3518,23.64,95,46,3.54,EC,1689491257
9,bilibino,68.0546,166.4372,28.43,28,17,1.94,RU,1689491257
10,yellowknife,62.456,-114.3525,15.87,63,63,1.79,CA,1689491257
11,hawaiian paradise park,19.5933,-154.9731,21.73,97,75,2.06,US,1689491257
12,olyokminsk,60.3736,120.4264,21.39,30,78,2.33,RU,1689491258
13,tabuk,17.4189,121.4443,29.65,72,89,2.1,PH,1689491258
14,kavaratti,10.5669,72.642,28.39,77,97,7.01,IN,1689491258
15,katoya,23.65,88.1333,32.13,67,100,5.32,IN,1689491178
16,hermanus,-34.4187,19.2345,16.0,83,97,3.95,ZA,1689491259
17,golfito,8.639,-83.166,24.51,94,100,1.28,CR,1689491259
18,higuera de zaragoza,25.95,-109.2833,29.14,80,100,5.16,MX,1689491259
19,port-aux-francais,-49.35,70.2167,1.64,59,89,14.91,TF,1689491260
20,beyneu,45.3167,55.2,28.54,33,100,9.21,KZ,1689491260
21,dudinka,69.4058,86.1778,5.87,65,100,6.54,RU,1689491260
22,anadyr,64.75,177.4833,21.28,49,0,7.0,RU,1689491260
23,lorengau,-2.0226,147.2712,28.43,71,99,5.68,PG,1689491261
24,port mathurin,-19.6833,63.4167,23.47,78,12,8.7,MU,1689491261
25,rosarito,32.3333,-117.0333,19.03,82,15,1.62,MX,1689491261
26,blackmans bay,-43.0167,147.3167,13.18,68,90,5.4,AU,1689491262
27,dashiqiao,40.6373,122.5025,24.88,67,94,3.59,CN,1689491136
28,keflavik,64.0049,-22.5624,8.24,81,75,10.29,IS,1689491262
29,longyearbyen,78.2186,15.6401,10.91,76,0,2.57,SJ,1689491262
30,ouled mimoun,34.9047,-1.0339,21.01,29,6,1.52,DZ,1689491263
31,shingu,33.7333,135.9833,31.24,58,10,4.74,JP,1689491263
32,bethel,41.3712,-73.414,25.83,85,100,0.89,US,1689491263
33,santa cruz,-17.8,-63.1667,17.7,82,75,2.06,BO,1689491263
34,mancio lima,-7.6142,-72.8958,21.62,99,65,0.94,BR,1689491264
35,kidal,18.4411,1.4078,29.21,50,13,2.67,ML,1689491264
36,bonny,4.4522,7.1681,25.69,86,99,2.7,NG,1689491264
37,petropavlovsk-kamchatsky,53.0452,158.6483,17.33,72,75,7.0,RU,1689491264
38,sao gabriel da cachoeira,-0.1303,-67.0892,21.45,99,17,0.68,BR,1689491259
39,grytviken,-54.2811,-36.5092,-5.76,73,30,2.08,GS,1689491265
40,arkhangel'sk,64.5401,40.5433,23.0,49,10,2.09,RU,1689491265
41,edinburgh of the seven seas,-37.0676,-12.3116,13.22,70,46,10.64,SH,1689491266
42,flying fish cove,-10.4217,105.6791,25.82,83,100,5.14,CX,1689491266
43,harstad,68.799,16.5293,17.36,74,97,6.26,NO,1689491266
44,okhotsk,59.3833,143.3,15.0,82,80,3.64,RU,1689491266
45,sirjan,29.452,55.6814,33.85,8,0,2.91,IR,1689491267
46,castillos,-34.1667,-53.8333,6.57,86,2,3.52,UY,1689491267
47,dogondoutchi,13.6393,4.0287,29.89,53,66,3.9,NE,1689491267
48,hithadhoo,-0.6,73.0833,28.14,71,25,0.47,MV,1689491267
49,okulovka,58.4008,33.2908,21.24,56,5,2.79,RU,1689491268
50,codrington,-38.2667,141.9667,13.03,63,100,5.26,AU,1689491268
51,luwuk,-0.9516,122.7875,28.09,74,35,3.13,ID,1689491268
52,hengshui,37.7322,115.7011,37.86,17,2,2.37,CN,1689491269
53,margate,51.3813,1.3862,17.72,64,3,5.36,GB,1689491269
54,alofi,-19.0595,-169.9187,22.83,75,100,12.19,NU,1689491269
55,gaspe,48.8334,-64.4819,18.1,98,90,1.59,CA,1689491269
56,sisimiut,66.9395,-53.6735,5.04,94,100,1.96,GL,1689491270
57,kingston,17.997,-76.7936,27.36,88,0,1.3,JM,1689491225
58,puerto natales,-51.7236,-72.4875,-2.05,92,52,2.4,CL,1689491270
59,bahar,34.9072,48.4414,31.56,10,0,1.19,IR,1689491270
60,middelburg,-25.7751,29.4648,10.82,42,0,2.61,ZA,1689491271
61,waingapu,-9.6567,120.2641,28.21,62,100,6.03,ID,1689491271
62,missoula,47.0166,-113.8009,15.61,53,100,0.42,US,1689491271
63,cockburn town,21.4612,-71.1419,28.27,81,0,7.41,TC,1689491022
64,filadelfia,39.9523,-75.1638,27.14,89,100,4.63,US,1689491272
65,miquelon,47.0975,-56.3814,15.0,99,100,3.82,PM,1689491272
66,sao jose da coroa grande,-8.8978,-35.1478,23.47,86,43,3.1,BR,1689491272
67,ushuaia,-54.8,-68.3,-2.84,93,90,2.35,AR,1689491272
68,vorgashor,67.5833,63.95,20.52,48,35,4.12,RU,1689491273
69,waitangi,-43.9535,-176.5597,11.57,80,100,7.51,NZ,1689491273
70,saint-louis,16.3333,-15.0,27.0,80,95,5.85,SN,1689491273
71,iwanai,42.9744,140.5089,22.02,88,90,3.21,JP,1689491273
72,uturoa,-16.7333,-151.4333,26.2,63,4,4.45,PF,1689491274
73,pollock pines,38.7613,-120.5866,26.36,51,0,4.12,US,1689491274
74,vilyuysk,63.7553,121.6247,15.61,40,96,4.12,RU,1689491274
75,margaret river,-33.95,115.0667,16.0,62,7,8.24,AU,1689491274
76,iskateley,67.6803,53.1512,23.98,45,15,3.71,RU,1689491275
77,pak chong,14.708,101.4161,29.43,60,91,6.5,TH,1689491275
78,douglas,41.3,-96.167,21.48,90,0,0.0,US,1689491275
79,ulsteinvik,62.3432,5.8487,17.17,84,85,2.24,NO,1689491276
80,bredasdorp,-34.5322,20.0403,12.35,79,18,2.66,ZA,1689491100
81,weno,7.4515,151.8468,30.97,74,40,3.09,FM,1689491276
82,thompson,55.7435,-97.8558,10.63,95,100,3.43,CA,1689491277
83,jamestown,42.097,-79.2353,20.77,98,100,3.09,US,1689491231
84,bamboo flat,11.7,92.7167,30.05,74,40,5.14,IN,1689491277
85,zeya,53.75,127.2667,32.18,30,1,2.03,RU,1689491277
86,umba,66.6871,34.3429,16.87,66,19,3.7,RU,1689491278
87,ust-nera,64.5667,143.2,23.87,44,53,2.81,RU,1689491278
88,remire-montjoly,4.9167,-52.2667,23.02,100,0,0.0,GF,1689491278
89,punta arenas,-53.15,-70.9167,1.06,80,0,2.57,CL,1689491164
90,torghay,49.6339,63.4981,32.51,20,96,8.19,KZ,1689491279
91,albany,42.6001,-73.9662,23.62,98,100,1.34,US,1689490973
92,karratha,-20.7377,116.8463,25.51,28,0,4.57,AU,1689491279
93,kisanga,-7.4362,37.7034,26.02,54,0,1.81,TZ,1689491280
94,taoudenni,22.6783,-3.9836,35.15,32,35,8.38,ML,1689491280
95,manzanillo,20.3433,-77.1167,24.74,90,6,3.47,CU,1689490765
96,tura,25.5198,90.2201,29.7,71,100,3.09,IN,1689491281
97,papatowai,-46.5619,169.4708,8.09,71,88,6.35,NZ,1689491281
98,tazovsky,67.4667,78.7,9.27,56,8,5.91,RU,1689491281
99,mariental,-24.6333,17.9667,12.48,33,0,1.63,NA,1689491282
100,badger,64.8,-147.5333,16.4,87,100,2.06,US,1689491282
101,kongsvinger,60.1905,11.9977,15.37,97,100,3.15,NO,1689491175
102,chui,-33.6971,-53.4616,8.91,75,80,3.63,UY,1689491283
103,west island,-12.1568,96.8225,26.99,69,40,8.23,CC,1689491019
104,ijui,-28.3878,-53.9147,9.29,88,52,1.32,BR,1689491284
105,lompoc,34.6391,-120.4579,16.08,96,100,0.0,US,1689491285
106,minas de marcona,-15.2119,-75.1103,11.16,89,32,3.9,PE,1689491285
107,linxia chengguanzhen,35.6003,103.2064,28.44,26,0,2.39,CN,1689491286
108,atafu village,-8.5421,-172.5159,28.55,74,96,4.33,TK,1689491286
109,nampula,-15.1165,39.2666,18.97,82,20,6.26,MZ,1689491169
110,st. john's,47.5649,-52.7093,15.99,95,100,0.89,CA,1689491224
111,isafjordur,66.0755,-23.124,6.64,85,85,3.18,IS,1689491287
112,santa ana,33.7456,-117.8678,24.29,85,0,1.54,US,1689491288
113,shalkar,47.8288,59.6258,31.74,32,5,10.34,KZ,1689491288
114,college,64.8569,-147.8028,16.44,87,75,2.06,US,1689491289
115,quelimane,-17.8786,36.8883,21.59,66,0,1.91,MZ,1689491289
116,tecumseh,42.0039,-83.9449,19.74,93,20,1.54,US,1689491289
117,ad-damazin,11.7891,34.3592,26.14,65,73,1.68,SD,1689491290
118,saint-philippe,-21.3585,55.7679,22.77,86,91,7.09,RE,1689491290
119,sinabang,2.4803,96.3801,28.59,73,100,1.71,ID,1689491290
120,plymouth,41.8334,-70.8328,25.12,87,100,4.12,US,1689491291
121,acarau,-2.8856,-40.12,24.38,88,5,6.07,BR,1689491291
122,levuka,50.1834,-105.4011,12.45,77,67,2.61,CA,1689491292
123,kodiak,57.79,-152.4072,11.73,94,100,4.63,US,1689491124
124,port blair,11.6667,92.75,30.02,74,40,5.14,IN,1689491292
125,karasburg,-28.0167,18.75,12.72,37,0,2.7,NA,1689491292
126,nar'yan-mar,67.6713,53.087,24.01,45,15,3.68,RU,1689491293
127,invercargill,-46.4,168.35,7.22,78,79,5.19,NZ,1689490998
128,kimberley,-28.7323,24.7623,9.83,53,0,2.06,ZA,1689491293
129,qaqortoq,60.7167,-46.0333,5.98,95,100,1.87,GL,1689491293
130,constantia,44.1833,28.65,29.28,48,0,2.26,RO,1689491135
131,nogliki,51.8333,143.1667,13.17,80,100,4.03,RU,1689491294
132,poronaysk,49.2167,143.1167,15.81,78,100,5.37,RU,1689491294
133,gunjur,13.2019,-16.7339,25.04,94,75,0.0,GM,1689491295
134,aigio,38.2486,22.0819,34.01,45,0,3.75,GR,1689491295
135,el granada,37.5027,-122.4694,22.8,87,100,6.17,US,1689491295
136,magadan,59.5667,150.8,19.74,75,13,3.69,RU,1689491229
137,berezovyy,51.6667,135.7,25.82,42,100,2.94,RU,1689491296
138,iqaluit,63.7506,-68.5145,4.5,96,94,0.52,CA,1689491296
139,flin flon,54.7682,-101.865,9.75,94,100,2.46,CA,1689490826
140,thayetmyo,19.3167,95.1833,33.66,48,58,4.78,MM,1689491297
141,nagqu,31.5,92.0,16.25,38,92,5.17,CN,1689491297
142,broken hill,-31.95,141.4333,12.68,49,0,5.44,AU,1689491297
143,alta,69.9689,23.2717,11.77,87,100,2.57,NO,1689491297
144,yonggwang-up,40.0183,127.4547,30.86,50,100,2.73,KP,1689491298
145,inari,68.906,27.0288,17.11,47,0,6.26,FI,1689491298
146,bardai,11.65,7.2333,25.41,64,43,1.71,NG,1689491298
147,dunedin,-45.8742,170.5036,8.78,62,100,0.89,NZ,1689491298
148,sechura,-5.5569,-80.8222,22.21,80,24,4.26,PE,1689491299
149,brisas de zicatela,15.8369,-97.0419,26.64,82,100,2.05,MX,1689491299
150,villers-le-bouillet,50.5771,5.2595,18.18,67,20,10.29,BE,1689491299
151,howard springs,-12.497,131.047,30.95,32,73,0.19,AU,1689491299
152,norton shores,43.1689,-86.2639,19.58,79,0,0.0,US,1689491300
153,san clemente,33.427,-117.612,25.61,91,100,0.89,US,1689491290
154,arraial do cabo,-22.9661,-42.0278,19.72,79,0,7.97,BR,1689491300
155,ugoofaaru,5.6667,73.0,28.51,74,79,4.91,MV,1689491301
156,massakory,12.996,15.7293,30.4,48,99,4.45,TD,1689491301
157,hadibu,12.65,54.0333,26.58,75,38,12.94,YE,1689491301
158,taltal,-25.4,-70.4833,14.81,82,100,2.89,CL,1689490821
159,sandnessjoen,66.0217,12.6316,18.29,70,100,7.46,NO,1689491302
160,playa del ingles,27.7567,-15.5787,23.0,79,4,6.21,ES,1689491302
161,yuzhno-kurilsk,44.0306,145.8556,13.9,93,100,2.19,RU,1689491302
162,baiti,13.745,-14.7482,24.31,85,99,2.81,SN,1689491302
163,silver city,32.7701,-108.2803,22.04,62,0,4.63,US,1689491303
164,port alfred,-33.5906,26.891,14.54,70,76,0.45,ZA,1689491303
165,kapuskasing,49.4169,-82.4331,14.05,100,40,2.06,CA,1689491167
166,peniche,39.3558,-9.3811,17.94,69,62,8.97,PT,1689491303
167,georgetown,5.4112,100.3354,32.96,70,20,4.12,MY,1689491174
168,aykhal,66.0,111.5,14.52,37,100,6.48,RU,1689491304
169,hatillo,18.4863,-66.8254,27.27,94,100,0.89,PR,1689491304
170,ilulissat,69.2167,-51.1,4.01,100,100,1.54,GL,1689491305
171,solnechnyy,50.7214,136.6319,19.89,65,100,0.54,RU,1689491305
172,bela vista,-22.1089,-56.5211,16.34,53,100,1.42,BR,1689491305
173,mangrol,21.1167,70.1167,29.4,74,20,7.65,IN,1689491306
174,ponta delgada,37.7333,-25.6667,20.4,77,75,3.09,PT,1689491306
175,were ilu,10.6,39.4333,19.9,46,9,0.4,ET,1689491306
176,olonkinbyen,70.9221,-8.7187,4.42,97,100,8.54,SJ,1689491306
177,richards bay,-28.783,32.0377,19.19,41,0,1.95,ZA,1689491307
178,north bend,43.4065,-124.2243,15.14,100,100,3.6,US,1689491307
179,kone,-21.0595,164.8658,19.9,64,8,4.05,NC,1689491307
180,turbat,26.0023,63.044,34.94,46,10,3.55,PK,1689491308
181,kilindoni,-7.9139,39.6668,24.87,75,5,7.56,TZ,1689491308
182,valle hermoso,25.6667,-97.8333,28.92,89,6,6.45,MX,1689491308
183,nemuro,43.3236,145.575,13.18,93,100,3.68,JP,1689491309
184,udachny,66.4167,112.4,16.94,30,100,4.33,RU,1689491309
185,laguna,38.421,-121.4238,28.86,56,0,2.57,US,1689491309
186,gadzhiyevo,69.2551,33.3362,17.87,65,36,4.53,RU,1689491309
187,liwale,-9.7667,37.9333,24.25,44,6,3.96,TZ,1689491310
188,praia da vitoria,38.7333,-27.0667,19.86,84,7,4.34,PT,1689491310
189,lastoursville,-0.8143,12.7287,25.43,74,94,1.18,GA,1689491310
190,tsaratanana,-16.7833,47.65,24.52,50,0,6.72,MG,1689491238
191,suances,43.4334,-4.0434,18.95,82,75,2.06,ES,1689491311
192,zhangatas,43.5667,69.75,33.33,15,0,7.54,KZ,1689491311
193,sakakah,29.9697,40.2064,38.83,7,0,2.29,SA,1689491311
194,webster city,42.4694,-93.816,19.06,100,0,1.54,US,1689491311
195,ancud,-41.8697,-73.8203,4.01,84,7,2.18,CL,1689491312
196,polyarnyy,69.1989,33.4478,17.31,69,32,4.38,RU,1689491312
197,sitangkai,4.6628,119.3928,28.39,78,100,10.34,PH,1689491312
198,sitka,57.0531,-135.33,15.94,82,40,1.54,US,1689491312
199,kununurra,-15.7667,128.7333,31.99,29,99,4.63,AU,1689491313
200,brignoles,43.4,6.0667,27.75,63,0,0.27,FR,1689491313
201,paracuru,-3.41,-39.0306,26.73,87,8,4.31,BR,1689491179
202,palo santo,-25.5633,-59.3378,14.22,66,100,1.61,AR,1689491313
203,popondetta,-8.7537,148.2534,27.23,63,6,1.81,PG,1689491314
204,jalpan,21.2333,-99.4833,21.55,90,2,0.3,MX,1689491314
205,lerwick,60.1545,-1.1494,15.0,88,97,0.76,GB,1689491314
206,banda,25.4833,80.3333,35.04,48,65,1.01,IN,1689491315
207,ta`u,-14.2336,-169.5144,26.92,78,22,9.05,AS,1689491315
208,choyr,46.3611,108.3611,26.09,29,98,5.86,MN,1689491315
209,nadym,65.5333,72.5167,17.94,43,10,5.03,RU,1689491315
210,novyy urengoy,66.0833,76.6333,15.14,33,0,4.82,RU,1689491316
211,pagar alam,-4.0167,103.2667,25.13,84,100,0.76,ID,1689491316
212,jakobsberg,59.4227,17.8351,20.07,74,75,6.69,SE,1689491316
213,whitehorse,60.7161,-135.0538,15.57,65,0,2.67,CA,1689491316
214,hammerfest,70.6634,23.6821,13.25,88,75,2.57,NO,1689491317
215,saipan,15.1355,145.701,31.39,100,40,6.69,MP,1689491317
216,fortuna,40.5982,-124.1573,14.19,96,100,0.0,US,1689491317
217,northam,51.0333,-4.2167,15.37,85,31,8.3,GB,1689491317
218,qamdo,31.1667,97.2333,12.53,48,100,2.41,CN,1689491318
219,selfoss,63.9331,-20.9971,8.91,79,54,4.96,IS,1689491318
220,souillac,-20.5167,57.5167,23.13,79,63,6.83,MU,1689491318
221,khash,28.2211,61.2158,35.23,6,0,6.86,IR,1689491318
222,guangming,45.3333,122.7833,19.57,85,100,4.2,CN,1689491319
223,hirara,24.8,125.2833,31.15,70,40,8.23,JP,1689491319
224,nezhinka,51.7676,55.3694,19.0,94,100,7.15,RU,1689491319
225,klyuchi,52.2667,79.1667,23.32,49,100,8.88,RU,1689491319
226,luderitz,-26.6481,15.1594,16.66,45,0,4.41,NA,1689491320
227,fort bragg,35.139,-79.006,26.57,96,100,4.63,US,1689491320
228,grand baie,-20.0182,57.5802,25.25,69,8,3.13,MU,1689491320
229,carnarvon,-24.8667,113.6333,21.42,35,0,3.84,AU,1689491321
230,enewetak,11.3474,162.3373,28.2,80,100,6.6,MH,1689491321
231,tamanrasset,22.785,5.5228,24.95,29,5,2.06,DZ,1689491321
232,badiyah,22.45,58.8,37.99,28,59,2.57,OM,1689491321
233,ad dabbah,18.05,30.95,37.37,8,82,2.21,SD,1689491322
234,ain sefra,32.75,-0.5833,28.84,10,0,1.33,DZ,1689491322
235,urangan,-25.3,152.9,18.99,79,100,6.38,AU,1689491322
236,labytnangi,66.6572,66.4183,20.43,45,7,3.51,RU,1689491322
237,inongo,-1.95,18.2667,22.99,68,1,1.34,CD,1689491323
238,uray,60.1247,64.7758,22.81,39,4,5.11,RU,1689491323
239,weisswasser,51.5167,14.6333,21.61,87,100,4.03,DE,1689491323
240,nurota,40.5614,65.6886,33.96,12,0,6.94,UZ,1689491323
241,lata,40.1629,-8.3327,13.93,76,15,1.61,PT,1689491324
242,rabo de peixe,37.8,-25.5833,19.73,77,75,3.09,PT,1689491324
243,tralee,52.2704,-9.7026,12.76,85,100,4.01,IE,1689491324
244,boyolangu,-8.1181,111.8935,26.52,68,65,4.84,ID,1689491324
245,saint-francois,46.4154,3.9054,17.04,94,0,0.51,FR,1689491325
246,quirinopolis,-18.4483,-50.4517,16.78,51,18,0.81,BR,1689491325
247,codlea,45.7,25.45,27.13,57,0,1.08,RO,1689491325
248,cuxhaven,53.8718,8.6909,18.87,68,20,8.23,DE,1689491325
249,charters towers,-20.1,146.2667,23.19,41,100,4.39,AU,1689491326
250,san carlos de bariloche,-41.1456,-71.3082,-2.09,84,52,1.99,AR,1689491326
251,jingdezhen,29.2947,117.2079,32.39,72,45,2.2,CN,1689491326
252,abancay,-13.6339,-72.8814,13.06,88,88,0.66,PE,1689491210
253,dolores,-36.3132,-57.6792,2.53,83,0,3.48,AR,1689491327
254,bibir hat,22.6873,91.7853,30.49,73,74,5.93,BD,1689491327
255,port lincoln,-34.7333,135.8667,13.31,58,1,1.85,AU,1689491328
256,bamiantong,44.9333,130.5333,20.14,94,100,3.46,CN,1689491121
257,twin falls,42.3505,-114.6445,21.19,35,0,4.12,US,1689491328
258,vilyuchinsk,52.9306,158.4028,18.15,87,76,2.67,RU,1689491329
259,tual,-5.6667,132.75,26.4,81,99,6.7,ID,1689491329
260,masterton,-40.9597,175.6575,12.71,79,100,2.87,NZ,1689491329
261,kayangel,8.0823,134.7173,27.96,79,100,5.01,PW,1689491329
262,porto novo,6.4965,2.6036,25.18,89,100,2.59,BJ,1689491330
263,kryve ozero,47.9524,30.3493,25.97,34,0,2.43,UA,1689491330
264,port hedland,-20.3167,118.5667,28.03,20,0,5.66,AU,1689491330
265,saint-pierre,-21.3393,55.4781,25.32,83,75,11.83,RE,1689491330
266,nova sintra,14.8667,-24.7167,22.32,83,84,2.09,CV,1689491331
267,kendari,-3.945,122.4989,26.74,83,94,2.4,ID,1689491331
268,saldanha,-33.0117,17.9442,13.03,90,30,6.25,ZA,1689491165
269,ostrowiec swietokrzyski,50.9294,21.3853,25.93,55,0,3.7,PL,1689491331
270,marsh harbour,26.5412,-77.0636,28.97,78,86,5.82,BS,1689491332
271,wailua homesteads,22.0669,-159.378,25.44,83,100,6.69,US,1689491332
272,mount isa,-20.7333,139.5,25.87,31,100,3.6,AU,1689491332
273,geraldton,-28.7667,114.6,20.23,34,0,0.51,AU,1689491332
274,port elizabeth,-33.918,25.5701,13.39,64,9,3.83,ZA,1689491333
275,le port,-20.9373,55.2919,25.98,92,27,1.02,RE,1689491333
276,tiksi,71.6872,128.8694,3.16,90,100,3.69,RU,1689491333
277,carbonear,47.7332,-53.2148,16.25,96,100,4.05,CA,1689491333
278,tarauaca,-8.1614,-70.7656,22.08,90,6,0.54,BR,1689491334
279,aasiaat,68.7098,-52.8699,2.6,95,100,4.51,GL,1689491334
280,dzuunharaa,48.8523,106.4579,25.88,57,99,1.73,MN,1689491293
281,orange walk,17.8333,-88.8333,24.27,99,92,0.97,BZ,1689491335
282,touros,-5.1989,-35.4608,23.9,84,2,4.35,BR,1689491222
283,goz beida,13.95,20.55,31.33,43,37,2.58,TD,1689491335
284,guajara mirim,-10.7828,-65.3394,19.84,76,92,0.32,BR,1689491050
285,pisco,-13.7,-76.2167,18.03,77,100,2.57,PE,1689491336
286,arno,60.1167,18.6333,18.21,76,100,8.63,SE,1689491336
287,hamilton,39.1834,-84.5333,21.54,96,100,2.06,US,1689491121
288,mar del plata,-38.0023,-57.5575,7.19,89,79,7.6,AR,1689491130
289,talnakh,69.4865,88.3972,6.23,77,100,4.28,RU,1689491337
290,demopolis,32.5176,-87.8364,23.51,98,63,1.57,US,1689491337
291,likiep,9.8251,169.3107,28.45,73,25,6.82,MH,1689491337
292,la gi,10.6667,107.7833,30.39,70,100,6.91,VN,1689491338
293,filipstad,59.7124,14.1683,15.49,99,100,3.31,SE,1689491338
294,bonnyville,54.2668,-110.735,10.35,86,100,2.8,CA,1689491338
295,belvedere marittimo,39.6179,15.8617,29.27,46,0,0.5,IT,1689491338
296,mena,51.5217,32.2157,22.33,50,0,3.28,UA,1689491339
297,puerto san jose,13.9256,-90.8244,25.7,83,100,2.0,GT,1689491339
298,ocos,14.5094,-92.1933,24.85,88,100,5.11,GT,1689491340
299,afaahiti,-17.75,-149.2833,22.93,64,3,3.02,PF,1689491340
300,nchelenge,-9.3451,28.734,20.46,50,6,2.83,ZM,1689491340
301,al mijlad,11.0333,27.7333,28.45,58,100,5.89,SD,1689491341
302,kapa'a,22.0752,-159.319,26.18,81,100,6.69,US,1689491341
303,nasir,15.5894,32.5634,31.41,48,74,8.64,SD,1689491341
304,tavda,58.0425,65.2726,22.02,38,60,4.05,RU,1689491341
305,gridley,39.3638,-121.6936,32.14,39,0,2.06,US,1689491342
306,colonia,50.9333,6.95,21.01,59,20,6.69,DE,1689491342
307,nazir town,33.3061,73.4833,35.16,47,20,3.56,PK,1689491342
308,luanda,-8.8368,13.2343,20.22,80,0,1.24,AO,1689491342
309,crane,31.3974,-102.3501,30.04,32,98,3.71,US,1689491152
310,queenstown,-31.8976,26.8753,12.55,39,3,3.98,ZA,1689491337
311,brokopondo,4.75,-55.1667,24.51,89,36,2.54,SR,1689491343
312,meulaboh,4.1363,96.1285,29.66,63,83,2.51,ID,1689491343
313,weissenfels,51.2,11.9667,24.05,63,64,1.79,DE,1689491344
314,christchurch,-43.5333,172.6333,10.51,73,100,3.09,NZ,1689491167
315,mochudi,-24.4167,26.15,14.48,37,0,0.49,BW,1689491344
316,indore,22.7179,75.8333,24.1,88,75,4.63,IN,1689491344
317,swakopmund,-22.6833,14.5333,16.37,50,0,1.48,NA,1689491345
318,lethem,3.3803,-59.7968,23.54,89,15,2.61,GY,1689491345
319,muroto-misakicho,33.2833,134.15,27.77,81,30,4.82,JP,1689491345
320,belozersk,60.0326,37.7957,18.88,64,68,2.9,RU,1689491346
321,road town,18.4167,-64.6167,28.05,78,100,7.63,VG,1689491346
322,borogontsy,62.6683,131.1683,17.74,43,79,3.07,RU,1689491346
323,antalaha,-14.9003,50.2788,24.0,71,99,4.03,MG,1689491346
324,haiku-pauwela,20.9219,-156.3051,23.91,78,20,4.12,US,1689491347
325,tongren,27.7172,109.1853,33.94,44,60,3.88,CN,1689491347
326,cabo san lucas,22.8909,-109.9124,29.73,74,100,3.1,MX,1689491100
327,tupiza,-21.45,-65.7167,6.25,15,91,2.83,BO,1689491348
328,mutoko,-17.397,32.2268,15.16,51,0,1.59,ZW,1689491348
329,wladyslawowo,54.7909,18.4009,26.75,76,87,5.21,PL,1689491348
330,oelwein,42.6733,-91.9135,17.63,91,0,2.75,US,1689491349
331,fort st. john,56.2499,-120.8529,12.28,93,86,1.18,CA,1689491349
332,coquimbo,-29.9533,-71.3436,9.85,93,0,1.03,CL,1689490997
333,mweka,-4.85,21.5667,26.75,29,6,1.74,CD,1689491350
334,la ronge,55.1001,-105.2842,10.23,90,36,3.24,CA,1689491350
335,quellon,-43.1167,-73.6167,5.14,87,75,0.51,CL,1689491350
336,santa vitoria do palmar,-33.5189,-53.3681,9.19,74,99,3.19,BR,1689491350
337,timbuktu,16.7735,-3.0074,31.34,48,86,3.38,ML,1689491351
338,formosa do rio preto,-11.0483,-45.1931,20.22,52,21,1.71,BR,1689491351
339,ixtapa,20.7,-105.2,27.35,89,100,0.45,MX,1689491351
340,namibe,-15.1961,12.1522,22.16,41,0,1.28,AO,1689491351
341,bodo,67.28,14.405,18.3,63,75,8.23,NO,1689491166
342,buckingham,51.9997,-0.9878,16.1,83,100,2.68,GB,1689491352
343,derry,54.9981,-7.3093,12.81,91,89,5.53,GB,1689491352
344,mirabella imbaccari,37.3275,14.4463,33.42,18,0,1.34,IT,1689491353
345,panaba,21.2833,-88.2667,24.44,94,0,2.52,MX,1689491353
346,utrik,11.2278,169.8474,28.38,75,71,6.74,MH,1689491353
347,rawson,-43.3002,-65.1023,4.36,71,99,8.29,AR,1689491353
348,huarmey,-10.0681,-78.1522,20.71,85,78,3.71,PE,1689491354
349,tionk essil,12.7856,-16.5217,24.46,91,100,2.21,SN,1689491354
350,poxoreo,-15.8372,-54.3892,18.43,64,13,1.1,BR,1689491354
351,saynshand,44.8824,110.1163,30.48,14,6,3.38,MN,1689491355
352,lihue,21.9789,-159.3672,25.77,79,100,6.69,US,1689491355
353,zhelezinka,53.54,75.3072,15.81,86,100,7.87,KZ,1689491355
354,kiruna,67.8557,20.2251,15.51,63,91,2.06,SE,1689491356
355,noumea,-22.2763,166.4572,22.78,99,96,6.92,NC,1689491356
356,mont-laurier,46.5501,-75.4993,17.52,97,100,1.04,CA,1689491258
357,vadso,70.0744,29.7487,17.49,100,100,1.54,NO,1689491356
358,pasni,25.2631,63.471,28.59,76,100,6.49,PK,1689491357
359,preobrazheniye,42.9019,133.9064,16.52,89,100,5.25,RU,1689491357
360,bac lieu,9.285,105.7244,29.94,71,100,9.29,VN,1689491357
361,abaza,52.655,90.0928,20.0,88,100,1.87,RU,1689491357
362,kargasok,59.0556,80.8572,18.43,65,100,3.57,RU,1689491358
363,la passe,45.5549,-0.8967,19.45,59,56,4.89,FR,1689491358
364,newman,37.3138,-121.0208,28.49,61,44,0.45,US,1689491358
365,calgary,51.0501,-114.0853,17.2,77,100,2.06,CA,1689491142
366,kenora,49.8167,-94.4337,13.21,93,100,1.79,CA,1689491359
367,severo-yeniseyskiy,60.3725,93.0408,11.17,98,100,0.39,RU,1689491359
368,vallenar,-28.5708,-70.7581,13.2,35,58,0.93,CL,1689491359
369,portland,45.5234,-122.6762,23.38,53,0,4.63,US,1689491045
370,bakchar,57.0186,82.0711,22.74,54,100,3.45,RU,1689491360
371,brookings,44.3114,-96.7984,15.19,93,0,1.54,US,1689491273
372,al kharijah,25.4514,30.5464,35.08,10,0,3.17,EG,1689491361
373,siwa oasis,29.2041,25.5195,32.1,33,0,2.3,EG,1689491361
374,mount gambier,-37.8333,140.7667,12.16,68,100,2.91,AU,1689491361
375,timmins,48.4669,-81.3331,16.9,94,100,1.54,CA,1689491185
376,itoman,26.1247,127.6694,31.21,70,75,9.26,JP,1689491362
377,iron river,46.0927,-88.6423,11.97,86,49,1.54,US,1689491362
378,new norfolk,-42.7826,147.0587,13.84,74,100,4.64,AU,1689491362
379,al burayqah,30.4062,19.5739,27.99,65,0,4.1,LY,1689491363
380,avarua,-21.2078,-159.775,23.03,83,75,3.09,CK,1689491363
381,qandala,11.472,49.8728,33.97,47,5,1.51,SO,1689491363
382,micheweni,-4.9667,39.8333,25.77,73,36,6.46,TZ,1689491363
383,smithers,54.7804,-127.1743,12.5,97,5,1.4,CA,1689491364
384,lobujya,27.95,86.8167,7.94,78,100,1.1,NP,1689491364
385,molde,62.7375,7.1591,17.06,77,40,3.09,NO,1689491364
386,yekaterinovka,52.0508,44.3451,19.9,68,100,7.79,RU,1689491364
387,orkney,-26.9802,26.6727,11.93,35,0,0.53,ZA,1689491365
388,buon ma thuot,12.6667,108.05,24.44,90,100,2.15,VN,1689491365
389,susuman,62.7833,148.1667,26.58,35,17,6.28,RU,1689491365
390,san luis de la loma,17.2706,-100.8939,27.03,82,100,1.83,MX,1689491365
391,nizhneudinsk,54.9076,99.0276,29.89,35,100,1.49,RU,1689491366
392,upington,-28.4478,21.2561,10.21,50,0,0.51,ZA,1689491366
393,turkmenbasy,40.0222,52.9552,32.32,34,93,9.62,TM,1689491366
394,paola,39.3599,16.0396,29.98,42,0,0.78,IT,1689491366
395,pontian kechil,1.4866,103.3896,32.45,72,99,1.66,MY,1689491367
396,barcelos,41.5388,-8.6151,16.62,73,0,1.5,PT,1689491367
397,xiaoshi,41.2971,124.1209,22.52,86,63,1.8,CN,1689491368
398,nouadhibou,20.931,-17.0347,19.99,93,6,6.86,MR,1689491368
399,ankazoabo,-22.2833,44.5167,24.03,28,0,2.41,MG,1689491368
400,nueva helvecia,-34.3,-57.2333,5.79,81,2,3.81,UY,1689491368
401,lazaro cardenas,17.9583,-102.2,26.97,89,95,1.8,MX,1689491369
402,shakawe,-18.3667,21.85,15.99,41,0,3.62,BW,1689491369
403,grootfontein,-19.5667,18.1167,12.39,40,0,3.61,NA,1689491369
404,wuwei,37.9281,102.6414,34.3,12,8,5.33,CN,1689491370
405,chernyshevskiy,63.0128,112.4714,15.59,40,100,1.94,RU,1689491370
406,kindu,-2.95,25.95,29.74,50,6,0.32,CD,1689491370
407,skowhegan,44.7651,-69.7192,22.76,99,100,1.17,US,1689491370
408,villanueva,15.3167,-88.0,24.46,94,40,0.0,HN,1689491371
409,knyaze-volkonskoye,48.4642,135.4567,23.19,66,100,4.41,RU,1689491371
410,viedma,-40.8135,-62.9967,4.29,71,6,3.56,AR,1689491371
411,tashtagol,52.7657,87.8894,26.13,34,91,2.69,RU,1689491372
412,jacmel,18.2342,-72.5347,26.68,85,100,1.65,HT,1689491372
413,thunder bay,48.4001,-89.3168,12.95,88,100,2.06,CA,1689491318
414,agat village,13.3886,144.6585,30.06,85,40,6.17,GU,1689491372
415,eilat,29.5581,34.9482,34.55,27,0,3.34,IL,1689491373
416,labasa,-16.4167,179.3833,22.05,90,100,5.08,FJ,1689491373
417,necochea,-38.5473,-58.7368,8.59,65,100,9.08,AR,1689491373
418,libreville,0.3925,9.4537,23.68,81,99,3.03,GA,1689491373
419,holualoa,19.6228,-155.9522,21.91,91,0,2.57,US,1689491374
420,yarmouth,41.7057,-70.2286,25.26,94,40,4.63,US,1689491339
421,ijero-ekiti,7.8139,5.0742,22.03,95,94,2.35,NG,1689491374
422,blairgowrie,56.5916,-3.3405,16.12,92,98,0.89,GB,1689491374
423,wellington,-41.2866,174.7756,14.81,80,100,5.14,NZ,1689491342
424,mead,47.7674,-117.3549,24.89,39,0,2.06,US,1689491375
425,uruzgan,32.8333,66.0,33.74,10,0,3.38,AF,1689491375
426,santa cruz del sur,20.7147,-77.9956,26.01,92,45,5.66,CU,1689491174
427,cape canaveral,28.4058,-80.6048,27.21,88,0,4.12,US,1689491376
428,sao joao da barra,-21.6403,-41.0511,18.71,79,10,4.03,BR,1689491259
429,badulla,6.9895,81.0557,31.18,51,55,0.81,LK,1689491376
430,karasu,41.071,30.7854,24.33,68,0,4.19,TR,1689491376
431,ambon,-3.6954,128.1814,27.08,78,75,3.09,ID,1689491377
432,howrah,22.5892,88.3103,32.0,74,75,4.12,IN,1689491377
433,flekkefjord,58.2971,6.6607,16.64,94,99,5.01,NO,1689491377
434,ormara,25.2088,64.6357,28.6,75,28,7.14,PK,1689491377
435,manokwari,-0.8667,134.0833,25.22,89,100,4.9,ID,1689491378
436,lebu,-37.6167,-73.65,6.98,81,100,5.93,CL,1689491378
437,xiuyan,40.2928,123.2744,24.42,79,29,4.19,CN,1689491378
438,ankang,32.68,109.0172,34.56,42,0,0.83,CN,1689491378
439,lufilufi,-13.8745,-171.5986,23.88,80,100,8.99,WS,1689491379
440,santana,-0.0583,-51.1817,26.1,100,20,2.06,BR,1689491379
441,sao mateus,-18.7161,-39.8589,19.18,81,2,0.94,BR,1689491379
442,cartagena,10.3997,-75.5144,26.65,86,99,2.22,CO,1689491379
443,daru,-9.0763,143.2092,25.8,78,91,5.45,PG,1689491380
444,taro,-8.3862,115.28,24.0,65,57,2.1,ID,1689491380
445,merizo village,13.2658,144.6691,29.85,89,60,6.75,GU,1689491380
446,kulhudhuffushi,6.6221,73.07,28.16,78,100,6.03,MV,1689491380
447,bathsheba,13.2167,-59.5167,27.03,83,87,6.03,BB,1689491381
448,dortmund,51.5167,7.45,20.31,59,40,8.23,DE,1689491234
449,vila velha,-20.3297,-40.2925,18.3,88,75,1.03,BR,1689491381
450,kharp,66.8014,65.8081,21.31,44,10,3.35,RU,1689491381
451,xichang,27.8964,102.2634,30.68,29,13,2.71,CN,1689491382
452,wotho,10.1657,166.0102,28.5,78,71,6.57,MH,1689491382
453,madimba,-10.4,40.3333,26.14,58,4,6.07,TZ,1689491382
454,tindouf,27.6711,-8.1474,30.44,20,3,2.73,DZ,1689491383
455,izluchinsk,60.9794,76.9242,22.79,31,5,7.23,RU,1689491383
456,mostaganem,35.9311,0.0892,26.71,61,31,1.16,DZ,1689491383
457,zuwarah,32.9312,12.082,31.04,33,0,1.25,LY,1689491115
458,rio gallegos,-51.6226,-69.2181,-0.84,80,15,7.56,AR,1689491384
459,mili,6.0815,171.735,28.26,74,100,5.95,MH,1689491384
460,kavieng,-2.5744,150.7967,28.74,73,88,4.16,PG,1689491384
461,ampanihy,-24.7,44.75,22.31,36,0,4.32,MG,1689491384
462,bankim,6.083,11.4905,21.16,94,99,0.44,CM,1689491385
463,kailua-kona,19.6406,-155.9956,23.98,91,0,2.57,US,1689491385
464,vernon,50.2581,-119.2691,23.02,36,21,1.34,CA,1689491385
465,kodinsk,58.6881,99.1844,26.86,49,76,3.5,RU,1689491385
466,johnstown,40.3267,-78.922,21.97,98,86,1.7,US,1689491386
467,cochrane,51.1834,-114.4687,15.82,86,100,0.46,CA,1689491327
468,taft,31.7471,54.2088,35.97,9,0,5.14,IR,1689491237
469,vorkuta,67.5,64.0,20.86,48,17,4.21,RU,1689491386
470,perry,37.2506,-83.1999,24.1,100,48,1.81,US,1689491387
471,san patricio,28.017,-97.5169,28.25,91,37,4.2,US,1689491387
472,baise city,23.8997,106.6133,32.68,57,96,3.03,CN,1689491387
473,chonchi,-42.6128,-73.8092,0.62,94,14,1.53,CL,1689491387
474,akjoujt,19.6969,-14.4164,22.81,88,19,5.56,MR,1689491388
475,aleksandrovsk,59.158,57.5624,23.22,44,20,3.76,RU,1689491388
476,dacula,33.9887,-83.898,25.1,87,0,4.12,US,1689491388
477,grafton,42.207,-71.6856,24.62,93,75,3.6,US,1689491388
478,concordia,-31.393,-58.0209,6.55,97,0,1.91,AR,1689491389
479,miles city,46.4083,-105.8406,17.54,63,100,2.57,US,1689491250
480,arteche,12.2645,125.4048,31.21,63,100,2.55,PH,1689491389
481,nuuk,64.1835,-51.7216,9.34,100,100,1.03,GL,1689491344
482,adiake,5.2863,-3.304,24.44,91,100,2.08,CI,1689491390
483,morehead city,34.7229,-76.726,28.34,87,20,7.72,US,1689491390
484,zheshart,62.0731,49.5733,22.98,39,100,1.38,RU,1689491390
485,san andres,12.5847,-81.7006,28.35,87,100,11.01,CO,1689491390
486,ola,59.5833,151.2833,20.08,79,15,3.43,RU,1689491391
487,virpur,23.1833,73.4833,33.01,53,42,5.12,IN,1689491391
488,greenville,35.6127,-77.3663,26.09,99,100,3.6,US,1689491195
489,bluefields,12.0137,-83.7635,25.42,93,100,5.12,NI,1689491392
490,papao,-17.75,-149.55,23.82,63,0,3.62,PF,1689491392
491,presque isle,46.6811,-68.0159,22.24,79,100,4.12,US,1689491322
492,pacasmayo,-7.4006,-79.5714,21.33,86,93,4.8,PE,1689491392
493,port saint john's,-31.6229,29.5448,18.97,51,1,2.75,ZA,1689491393
494,puqi,29.7167,113.8833,27.99,80,93,2.85,CN,1689491393
495,hasaki,35.7333,140.8333,37.38,73,99,7.28,JP,1689491393
496,saint-paul,-21.0096,55.2707,26.05,92,33,0.89,RE,1689491103
497,aripuana,-9.1667,-60.6333,21.75,70,5,0.71,BR,1689491355
498,puerto deseado,-47.7503,-65.8938,-0.01,73,7,8.75,AR,1689491394
499,gazli,40.1333,63.45,36.51,10,1,5.29,UZ,1689491395
500,longavi,-35.9667,-71.6833,2.9,87,100,1.93,CL,1689491194
501,novobureyskiy,49.798,129.8774,18.7,79,100,1.36,RU,1689491395
502,shangqiu,34.45,115.65,35.74,25,0,4.04,CN,1689491395
503,kerikeri,-35.2268,173.9474,14.39,87,99,3.25,NZ,1689491395
504,coahuayana de hidalgo,18.7,-103.6583,26.14,94,43,1.21,MX,1689491396
505,westport,41.1415,-73.3579,26.63,90,100,4.63,US,1689491396
506,tadine,-21.55,167.8833,21.07,59,13,8.7,NC,1689491396
507,ca mau,9.1769,105.15,29.91,72,100,6.43,VN,1689491397
508,tortoli,39.9256,9.6572,31.09,41,7,1.0,IT,1689491397
509,axim,4.8699,-2.2405,25.27,87,100,3.24,GH,1689491397
510,timimoun,29.2639,0.231,32.97,9,0,5.94,DZ,1689491397
511,tissemsilt,35.6072,1.8108,31.48,11,75,3.5,DZ,1689491398
512,alice springs,-23.7,133.8833,20.75,40,40,6.17,AU,1689491398
513,tangalle,6.024,80.7911,34.09,70,13,6.73,LK,1689491398
514,prestea,5.4327,-2.1428,23.47,96,100,1.69,GH,1689491398
515,imamoglu,37.2651,35.6572,34.84,13,0,3.43,TR,1689491399
516,iyidere,41.0119,40.3619,22.98,71,60,3.68,TR,1689491399
517,tolanaro,-25.0319,46.9987,22.94,52,0,5.72,MG,1689491399
518,ebon,4.582,168.6964,28.46,78,100,5.38,MH,1689491399
519,happy valley-goose bay,53.3168,-60.3315,22.17,78,100,3.09,CA,1689491400
520,waddan,29.1614,16.139,29.02,36,7,3.24,LY,1689491400
521,barah,13.7,30.3667,31.79,43,35,5.79,SD,1689491400
522,laibin,23.7,109.2667,34.84,46,45,7.62,CN,1689491400
523,chos malal,-37.3781,-70.2709,1.62,50,100,0.26,AR,1689491401
524,ceres,37.5949,-120.9577,28.92,60,0,1.54,US,1689491401
525,rio grande,-32.035,-52.0986,9.14,85,0,3.94,BR,1689491401
526,villa san giovanni,38.2276,15.6386,31.67,61,0,4.63,IT,1689491402
527,roma,43.2128,-75.4557,23.74,88,75,3.6,US,1689491402
528,gualan,15.1333,-89.3667,23.61,99,100,0.64,GT,1689491402
529,fortaleza,-3.7227,-38.5247,27.07,78,40,6.17,BR,1689491108
530,vyazemskiy,47.5378,134.7525,18.52,92,100,1.78,RU,1689491403
531,dongsheng,39.8161,109.9776,27.39,19,0,1.94,CN,1689491403
532,ocean shores,46.9737,-124.1563,14.6,96,100,4.12,US,1689491276
533,nakhon phanom,17.3333,104.4167,30.01,71,100,3.29,TH,1689491404
534,cherdyn',60.403,56.4787,22.51,37,16,3.35,RU,1689491404
535,trincomalee,8.5711,81.2335,33.21,58,100,1.07,LK,1689491404
536,skaelskor,55.2506,11.2935,19.99,75,7,9.0,DK,1689491404
537,itambe,-15.245,-40.6244,18.2,97,91,0.76,BR,1689491405
538,vanino,49.0869,140.2543,19.24,60,100,2.13,RU,1689491405
539,daruvar,45.5906,17.225,28.71,55,0,2.41,HR,1689491405
540,fort leonard wood,37.7057,-92.1572,23.07,83,0,1.54,US,1689491405
541,markha,62.1053,129.7269,18.87,39,40,3.13,RU,1689491406
542,callao,-12.0667,-77.15,21.16,73,100,2.57,PE,1689491406
543,nizhniy odes,63.6445,54.856,24.78,33,8,1.21,RU,1689491406
544,marco island,25.9363,-81.7157,28.0,88,0,2.1,US,1689491244
545,gobabis,-22.45,18.9667,13.27,40,0,6.39,NA,1689491407
546,la mira,18.035,-102.3266,26.21,91,95,1.75,MX,1689491407
547,baiquan,47.5833,126.0833,16.82,92,100,5.11,CN,1689491407
548,yanam,16.7333,82.2167,33.16,52,100,5.36,IN,1689491408
549,nikolayevsk-on-amure,53.1406,140.73,23.01,43,100,3.44,RU,1689491408
550,juneau,58.3019,-134.4197,17.0,77,20,0.0,US,1689491408
